[{"name": "Daniel R. Spirer", "lat": "42.3858360", "lng": "-71.1194720", "id": "84d094b9b36d0a202e428934b8b48dfb0a26bd2c", "hours": [{"day": "2", "open": "1100", "close": "1800"}, {"day": "3", "open": "1100", "close": "1800"}, {"day": "4", "open": "1100", "close": "1800"}, {"day": "5", "open": "1100", "close": "2000"}, {"day": "6", "open": "1100", "close": "1800"}]}, {"name": "Tibet Arts Gallery", "lat": "42.3893810", "lng": "-71.1197450", "id": "e3facce266c6c2b41b8ab882f802ff2f2ba80cec", "hours": [{"day": "0", "open": "1200", "close": "1800"}, {"day": "1", "open": "1030", "close": "1830"}, {"day": "2", "open": "1030", "close": "1830"}, {"day": "3", "open": "1030", "close": "1830"}, {"day": "4", "open": "1030", "close": "1830"}, {"day": "5", "open": "1030", "close": "1830"}, {"day": "6", "open": "1000", "close": "1900"}]}, {"name": "Matthew Feldman", "lat": "42.3810580", "lng": "-71.1391620", "id": "e60805290571f8ea6d04b16b6d6aaa071b72e680", "hours": [{"day": "1", "open": "1000", "close": "1800"}, {"day": "2", "open": "1000", "close": "1800"}, {"day": "3", "open": "1000", "close": "1800"}, {"day": "4", "open": "1000", "close": "1800"}, {"day": "5", "open": "1000", "close": "1800"}, {"day": "6", "open": "1000", "close": "1800"}]}, {"name": "Nomad", "lat": "42.3846160", "lng": "-71.1192290", "id": "2cc378b0a15da62e52739cf8a69a178b45a163d4", "hours": [{"day": "0", "open": "1200", "close": "1800"}, {"day": "1", "open": "1000", "close": "1900"}, {"day": "2", "open": "1000", "close": "1900"}, {"day": "3", "open": "1000", "close": "1900"}, {"day": "4", "open": "1000", "close": "1900"}, {"day": "5", "open": "1000", "close": "1900"}, {"day": "6", "open": "1000", "close": "1800"}]}, {"name": "Daniel R. Spirer", "lat": "42.3858360", "lng": "-71.1194720", "id": "84d094b9b36d0a202e428934b8b48dfb0a26bd2c", "hours": [{"day": "2", "open": "1100", "close": "1800"}, {"day": "3", "open": "1100", "close": "1800"}, {"day": "4", "open": "1100", "close": "1800"}, {"day": "5", "open": "1100", "close": "2000"}, {"day": "6", "open": "1100", "close": "1800"}]}, {"name": "Baak Gallery", "lat": "42.3734970", "lng": "-71.1209430", "id": "fea3cd537a65c1346d16ffeb429d9631d3ca300c", "hours": [{"day": "0", "open": "1300", "close": "1800"}, {"day": "1", "open": "1030", "close": "1900"}, {"day": "2", "open": "1030", "close": "1900"}, {"day": "3", "open": "1030", "close": "1900"}, {"day": "4", "open": "1030", "close": "1900"}, {"day": "5", "open": "1030", "close": "1900"}, {"day": "6", "open": "1030", "close": "1900"}]}, {"name": "Oona's Experienced Clothing", "lat": "42.3719030", "lng": "-71.1153500", "id": "14f4efe4a0b49b10b58d7f711f6603856b82d1f1", "hours": [{"day": "0", "open": "1100", "close": "2000"}, {"day": "1", "open": "1100", "close": "2000"}, {"day": "2", "open": "1100", "close": "2000"}, {"day": "3", "open": "1100", "close": "2000"}, {"day": "4", "open": "1100", "close": "2000"}, {"day": "5", "open": "1100", "close": "2000"}, {"day": "6", "open": "1100", "close": "2000"}]}, {"name": "Topaz", "lat": "42.3731830", "lng": "-71.1187580", "id": "5b4813a06f7a2c9cb8632a0b78a448b3b9ec6758", "hours": [{"day": "0", "open": "1200", "close": "1700"}, {"day": "1", "open": "1100", "close": "1900"}, {"day": "2", "open": "1100", "close": "1900"}, {"day": "3", "open": "1100", "close": "1900"}, {"day": "4", "open": "1100", "close": "1900"}, {"day": "5", "open": "1100", "close": "1900"}, {"day": "6", "open": "1100", "close": "1900"}]}, {"name": "Tistik", "lat": "42.3741070", "lng": "-71.1209030", "id": "039850b4af1e28d99a853d336ecaf031d5dd4e02", "hours": [{"day": "0", "open": "1100", "close": "1800"}, {"day": "1", "open": "1030", "close": "1900"}, {"day": "2", "open": "1030", "close": "1900"}, {"day": "3", "open": "1030", "close": "1900"}, {"day": "4", "open": "1030", "close": "1900"}, {"day": "5", "open": "1030", "close": "2000"}, {"day": "6", "open": "1030", "close": "2000"}]}, {"name": "Leo Carroll Jewelers", "lat": "42.3735180", "lng": "-71.1000840", "id": "86d32eddda7e11910b238628336fb849156e6f58", "hours": [{"day": "2", "open": "1000", "close": "1800"}, {"day": "3", "open": "1000", "close": "1800"}, {"day": "4", "open": "1000", "close": "1800"}, {"day": "5", "open": "1000", "close": "1800"}, {"day": "6", "open": "1000", "close": "1600"}]}, {"name": "Pacheco Jewelers", "lat": "42.3719310", "lng": "-71.0860270", "id": "91530b0c94f2912907849c098a0c7b48eed113fc", "hours": [{"day": "2", "open": "0930", "close": "1730"}, {"day": "3", "open": "0930", "close": "1730"}, {"day": "4", "open": "0930", "close": "1730"}, {"day": "5", "open": "0930", "close": "1730"}, {"day": "6", "open": "0930", "close": "1730"}]}, {"name": "Arden B. - Cambridgeside Galleria", "lat": "42.3678640", "lng": "-71.0767680", "id": "c0a5386336185ec2b320f20131f62b0280ec3da0", "hours": [{"day": "0", "open": "0900", "close": "2200"}, {"day": "1", "open": "0900", "close": "2300"}, {"day": "2", "open": "0900", "close": "2300"}, {"day": "3", "open": "0900", "close": "2300"}, {"day": "4", "open": "0900", "close": "2300"}, {"day": "5", "open": "0900", "close": "2300"}, {"day": "6", "open": "0800", "close": "2300"}]}, {"name": "Pandora", "lat": "42.3681480", "lng": "-71.0761470", "id": "ba0589030ce6921f7ecb780a78e7a4b6ced12218", "hours": [{"day": "0", "open": "1200", "close": "1900"}, {"day": "1", "open": "1000", "close": "2100"}, {"day": "2", "open": "1000", "close": "2100"}, {"day": "3", "open": "1000", "close": "2100"}, {"day": "4", "open": "1000", "close": "2100"}, {"day": "5", "open": "1000", "close": "2100"}, {"day": "6", "open": "1000", "close": "2100"}]}]