[{"name": "Evolve Fitness", "lat": "42.3883780", "lng": "-71.1404140", "id": "c6a281e45a543ffa0f07204b076fafb6d73d748d", "hours": [{"day": "0", "open": "0700", "close": "2000"}, {"day": "1", "open": "0500", "close": "2200"}, {"day": "2", "open": "0500", "close": "2200"}, {"day": "3", "open": "0500", "close": "2200"}, {"day": "4", "open": "0500", "close": "2200"}, {"day": "5", "open": "0500", "close": "2100"}, {"day": "6", "open": "0700", "close": "2000"}]}, {"name": "Healthworks Fitness Center", "lat": "42.3887720", "lng": "-71.1190600", "id": "5a465070eda4d48123d7b2bf71d7823f726b26d7", "hours": [{"day": "0", "open": "0730", "close": "2000"}, {"day": "1", "open": "0530", "close": "2300"}, {"day": "2", "open": "0530", "close": "2300"}, {"day": "3", "open": "0530", "close": "2300"}, {"day": "4", "open": "0530", "close": "2300"}, {"day": "5", "open": "0530", "close": "2200"}, {"day": "6", "open": "0730", "close": "2000"}]}, {"name": "Planet Fitness", "lat": "42.3886510", "lng": "-71.1186540", "id": "43e1d215b533c7a1de93933f440429baba448d20", "hours": [{"day": "0", "open": "0700", "close": "1900"}, {"day": "1", "open": "0500", "close": "2300"}, {"day": "2", "open": "0500", "close": "2300"}, {"day": "3", "open": "0500", "close": "2300"}, {"day": "4", "open": "0500", "close": "2300"}, {"day": "5", "open": "0500", "close": "2100"}, {"day": "6", "open": "0700", "close": "1900"}]}, {"name": "Healthworks", "lat": "42.3887560", "lng": "-71.1189470", "id": "963439c8de2b466e4f907afaf0602581345ee3d6", "hours": [{"day": "1", "open": "0530", "close": "2300"}, {"day": "2", "open": "0530", "close": "2300"}, {"day": "3", "open": "0530", "close": "2300"}, {"day": "4", "open": "0530", "close": "2300"}, {"day": "5", "open": "0530", "close": "2200"}, {"day": "6", "open": "0730", "close": "2000"}]}, {"name": "Get In Shape For Women", "lat": "42.3853540", "lng": "-71.1195250", "id": "e0b31b2be98532b999dcaaaf6a544ebfa5d9a1fe", "hours": [{"day": "1", "open": "0600", "close": "1200"}, {"day": "1", "open": "1600", "close": "2000"}, {"day": "2", "open": "0600", "close": "1200"}, {"day": "2", "open": "1600", "close": "2000"}, {"day": "3", "open": "0600", "close": "1200"}, {"day": "3", "open": "1600", "close": "2000"}, {"day": "4", "open": "0600", "close": "1200"}, {"day": "4", "open": "1600", "close": "2000"}, {"day": "5", "open": "0600", "close": "1200"}, {"day": "5", "open": "1600", "close": "2000"}, {"day": "6", "open": "0800", "close": "1200"}]}, {"name": "Wellbridge Athletic Club - Charles Square", "lat": "42.3719670", "lng": "-71.1229830", "id": "9f77c0d220fa648d9dfedb572e5a5587c0ce2549", "hours": [{"day": "0", "open": "0700", "close": "1900"}, {"day": "1", "open": "0600", "close": "2200"}, {"day": "2", "open": "0600", "close": "2200"}, {"day": "3", "open": "0600", "close": "2200"}, {"day": "4", "open": "0600", "close": "2200"}, {"day": "5", "open": "0600", "close": "2100"}, {"day": "6", "open": "0700", "close": "1900"}]}, {"name": "Raw Fitness Performance", "lat": "42.3724760", "lng": "-71.0790800", "id": "dc2e9c6d87f92f266d2e3f2935113a765a67831a", "hours": [{"day": "1", "open": "0600", "close": "1930"}, {"day": "2", "open": "0600", "close": "1930"}, {"day": "3", "open": "0600", "close": "1930"}, {"day": "4", "open": "0600", "close": "1930"}, {"day": "5", "open": "0600", "close": "1200"}, {"day": "6", "open": "0800", "close": "1100"}]}, {"name": "Cambridge YMCA", "lat": "42.3667820", "lng": "-71.1066780", "id": "3a2023af222c819b8e84c5025dfcee1360ebeb47", "hours": [{"day": "1", "open": "0530", "close": "2200"}, {"day": "2", "open": "0530", "close": "2200"}, {"day": "3", "open": "0530", "close": "2200"}, {"day": "4", "open": "0530", "close": "2200"}, {"day": "5", "open": "0530", "close": "2100"}, {"day": "6", "open": "0600", "close": "1800"}]}, {"name": "Boston Sports Clubs", "lat": "42.3654490", "lng": "-71.1034960", "id": "c5610e03ed164ff0432b9d410ec3ba491fa8d63c", "hours": [{"day": "0", "open": "0800", "close": "2000"}, {"day": "1", "open": "0530", "close": "2200"}, {"day": "2", "open": "0530", "close": "2200"}, {"day": "3", "open": "0530", "close": "2200"}, {"day": "4", "open": "0530", "close": "2200"}, {"day": "5", "open": "0530", "close": "2100"}, {"day": "6", "open": "0800", "close": "2000"}]}, {"name": "Get In Shape For Women", "lat": "42.3654040", "lng": "-71.1033720", "id": "c1fb0f898e8bf80c7b41773d7be5ed46a31121ed", "hours": [{"day": "1", "open": "0600", "close": "1200"}, {"day": "1", "open": "1600", "close": "2000"}, {"day": "2", "open": "0600", "close": "1200"}, {"day": "2", "open": "1600", "close": "2000"}, {"day": "3", "open": "0600", "close": "1200"}, {"day": "3", "open": "1600", "close": "2000"}, {"day": "4", "open": "0600", "close": "1200"}, {"day": "4", "open": "1600", "close": "2000"}, {"day": "5", "open": "0600", "close": "1200"}, {"day": "5", "open": "1600", "close": "2000"}, {"day": "6", "open": "0800", "close": "1200"}]}, {"name": "The Breathing Room", "lat": "42.3666280", "lng": "-71.1054270", "id": "f3000093104ead4311533097472b84129cd27e72", "hours": [{"day": "0", "open": "0730", "close": "2100"}, {"day": "1", "open": "0700", "close": "2100"}, {"day": "2", "open": "0630", "close": "2100"}, {"day": "3", "open": "0800", "close": "2100"}, {"day": "4", "open": "0630", "close": "2100"}, {"day": "5", "open": "0800", "close": "2100"}, {"day": "6", "open": "0800", "close": "2100"}]}, {"name": "Bosse City Club & Spa", "lat": "42.3636410", "lng": "-71.0834480", "id": "0c3c6a2529f1eb3805cae82e3a41aa39ed2f9ff3", "hours": [{"day": "0", "open": "0800", "close": "1700"}, {"day": "1", "open": "0530", "close": "2100"}, {"day": "2", "open": "0530", "close": "2100"}, {"day": "3", "open": "0530", "close": "2100"}, {"day": "4", "open": "0530", "close": "2100"}, {"day": "5", "open": "0530", "close": "2100"}, {"day": "6", "open": "0800", "close": "1700"}]}, {"name": "Cambridge Athletic Club", "lat": "42.3643670", "lng": "-71.0789780", "id": "0021b414959aecdd82c768e2326c8c737de30a89", "hours": [{"day": "0", "open": "0800", "close": "1900"}, {"day": "1", "open": "0530", "close": "2300"}, {"day": "2", "open": "0530", "close": "2300"}, {"day": "3", "open": "0530", "close": "2300"}, {"day": "4", "open": "0530", "close": "2300"}, {"day": "5", "open": "0530", "close": "2300"}, {"day": "6", "open": "0800", "close": "1900"}]}]