[{"name": "Cambridge Public Library - Boudreau Branch", "lat": "42.3832000", "lng": "-71.1322240", "id": "e5c52846858e240417a145a6101e060d29b0dfb5", "hours": [{"day": "1", "open": "1000", "close": "1800"}, {"day": "2", "open": "1000", "close": "2000"}, {"day": "3", "open": "1000", "close": "1800"}, {"day": "5", "open": "1000", "close": "1800"}]}, {"name": "Sherrill Library", "lat": "42.3763480", "lng": "-71.1241420", "id": "d868ed9780d0c3342ccaed1935bbd314aba962c6", "hours": [{"day": "0", "open": "1300", "close": "2100"}, {"day": "1", "open": "0800", "close": "2200"}, {"day": "2", "open": "0800", "close": "2200"}, {"day": "3", "open": "0800", "close": "2200"}, {"day": "4", "open": "0800", "close": "2200"}, {"day": "5", "open": "0800", "close": "2100"}, {"day": "6", "open": "0900", "close": "1800"}]}, {"name": "Harvard Law School", "lat": "42.3787220", "lng": "-71.1191980", "id": "b5c53257c9b9fc609d996e71d1a8c28c05d045ed", "hours": [{"day": "1", "open": "0900", "close": "1700"}, {"day": "2", "open": "0900", "close": "1700"}, {"day": "3", "open": "0900", "close": "1700"}, {"day": "4", "open": "0900", "close": "1700"}, {"day": "5", "open": "0900", "close": "1700"}]}, {"name": "Cabot Science Library", "lat": "42.3762430", "lng": "-71.1160390", "id": "1300dff82ef268c086c59324d3794d79dd8a4c2c", "hours": [{"day": "0", "open": "1600", "close": "1900"}, {"day": "1", "open": "0900", "close": "1800"}, {"day": "2", "open": "0900", "close": "1800"}, {"day": "3", "open": "0900", "close": "1800"}, {"day": "4", "open": "0900", "close": "1800"}, {"day": "5", "open": "0900", "close": "1800"}, {"day": "6", "open": "1200", "close": "1900"}]}, {"name": "Gordon McKay Library", "lat": "42.3781480", "lng": "-71.1170770", "id": "18c1f3b52ba877dfcc0bb79a2153834a66931c5c", "hours": [{"day": "0", "open": "1200", "close": "1800"}, {"day": "1", "open": "0900", "close": "2200"}, {"day": "2", "open": "0900", "close": "2200"}, {"day": "3", "open": "0900", "close": "2200"}, {"day": "4", "open": "0900", "close": "2200"}, {"day": "5", "open": "0900", "close": "1800"}, {"day": "6", "open": "1000", "close": "1800"}]}, {"name": "Harvard Library Innovation Lab", "lat": "42.3777620", "lng": "-71.1184180", "id": "bc0f28b6d1fd25df380d88e79dfb8afe8292dada", "hours": [{"day": "1", "open": "0900", "close": "1700"}, {"day": "2", "open": "0900", "close": "1700"}, {"day": "3", "open": "0900", "close": "1700"}, {"day": "4", "open": "0900", "close": "1700"}, {"day": "5", "open": "0900", "close": "1700"}]}, {"name": "Kennedy School Library", "lat": "42.3710420", "lng": "-71.1219980", "id": "e97bf8476f1b1bb7e3bde345943aa2c28a645ea3", "hours": [{"day": "0", "open": "1200", "close": "2330"}, {"day": "1", "open": "0800", "close": "2345"}, {"day": "2", "open": "0800", "close": "2345"}, {"day": "3", "open": "0800", "close": "2345"}, {"day": "4", "open": "0800", "close": "2345"}, {"day": "5", "open": "0800", "close": "1800"}, {"day": "6", "open": "1200", "close": "1700"}]}, {"name": "Cambridge Public library", "lat": "42.3737210", "lng": "-71.1109480", "id": "0356a761f1426bb23026ae9eb920c33cb8fdf9df", "hours": [{"day": "0", "open": "1300", "close": "1700"}, {"day": "1", "open": "0900", "close": "2100"}, {"day": "2", "open": "0900", "close": "2100"}, {"day": "3", "open": "0900", "close": "2100"}, {"day": "4", "open": "0900", "close": "2100"}, {"day": "5", "open": "0900", "close": "1700"}, {"day": "6", "open": "0900", "close": "1700"}]}, {"name": "Cambridge Teachers Resource Center", "lat": "42.3740910", "lng": "-71.1118500", "id": "7c239d7102ba13dbae01f052db8c40fbb7fbc79f", "hours": [{"day": "1", "open": "0730", "close": "1600"}, {"day": "2", "open": "0730", "close": "1630"}, {"day": "3", "open": "0730", "close": "1630"}, {"day": "4", "open": "0730", "close": "1630"}, {"day": "5", "open": "0730", "close": "1600"}]}, {"name": "Cambridge Public Library - Valente Branch", "lat": "42.3721200", "lng": "-71.0903750", "id": "15d4a9cd765f2854cb2aacb2589c52cf517eb158", "hours": [{"day": "1", "open": "1000", "close": "2000"}, {"day": "2", "open": "1000", "close": "1800"}, {"day": "3", "open": "1000", "close": "2000"}, {"day": "5", "open": "1000", "close": "1800"}]}, {"name": "Cambridge Public Library - Valente Branch", "lat": "42.3721200", "lng": "-71.0903750", "id": "15d4a9cd765f2854cb2aacb2589c52cf517eb158", "hours": [{"day": "1", "open": "1000", "close": "2000"}, {"day": "2", "open": "1000", "close": "1800"}, {"day": "3", "open": "1000", "close": "2000"}, {"day": "5", "open": "1000", "close": "1800"}]}, {"name": "Cambridge Public Library - O'Connell Branch", "lat": "42.3703850", "lng": "-71.0849930", "id": "90e124b54f82a1cbd999efc098d482d5330499f1", "hours": [{"day": "1", "open": "1000", "close": "1700"}, {"day": "2", "open": "1000", "close": "1930"}, {"day": "3", "open": "1000", "close": "1700"}, {"day": "4", "open": "1000", "close": "1700"}]}, {"name": "Cambridge Public Library - Central Square Branch", "lat": "42.3638720", "lng": "-71.1036270", "id": "e8b124e420f7b19dba9bfaa7501a2c5d0142790a", "hours": [{"day": "0", "open": "1300", "close": "1700"}, {"day": "1", "open": "0900", "close": "2100"}, {"day": "2", "open": "0900", "close": "2100"}, {"day": "3", "open": "0900", "close": "2100"}, {"day": "4", "open": "0900", "close": "2100"}, {"day": "5", "open": "0900", "close": "1700"}, {"day": "6", "open": "0900", "close": "1700"}]}, {"name": "Mit Science Fiction Society Library", "lat": "42.3589830", "lng": "-71.0948350", "id": "e7e93a242e2fcb4e210e8f22dfb1d1c30195f4b0", "hours": [{"day": "0", "open": "1200", "close": "1400"}, {"day": "0", "open": "1900", "close": "2115"}, {"day": "1", "open": "1600", "close": "1800"}, {"day": "1", "open": "2000", "close": "2200"}, {"day": "2", "open": "1700", "close": "2100"}, {"day": "3", "open": "1600", "close": "0000"}, {"day": "4", "open": "1200", "close": "1400"}, {"day": "4", "open": "1700", "close": "2100"}, {"day": "5", "open": "1700", "close": "1800"}, {"day": "6", "open": "1300", "close": "1500"}]}, {"name": "MIT Libraries", "lat": "42.3590580", "lng": "-71.0891750", "id": "e492dfcb853e556bcb0becc5de1dc3c875b44331", "hours": [{"day": "0", "open": "1300", "close": "1800"}, {"day": "1", "open": "1000", "close": "1800"}, {"day": "2", "open": "1000", "close": "1800"}, {"day": "3", "open": "1000", "close": "1800"}, {"day": "4", "open": "1000", "close": "1800"}, {"day": "5", "open": "1000", "close": "1800"}, {"day": "6", "open": "1300", "close": "1800"}]}]